[ 
	{
		"warehouseId": "e1839e0b-57a0-472c-b29d-8d57e256ef32",
		"name": "Santa Clara Warehouse",
		"address1": "3250 Dr Olcott Street",
		"address2": "",
		"city": "Santa Clara",
		"state": "CA",
		"postalCode": "95054",
		"salesTax": 0.0913,
		"yearToDateBalance": 0.00,
		"latitude": 32.3803024,
		"longitude": -121.9674197,
		"documentType": "warehouse",
		"shippingTo": ["AZ","CA","HI","NV"]
	},
	{
		"warehouseId": "cd7a3e29-0d50-4dee-8ca3-fd1bb43c2f6f",
		"name": "Houston Warehouse",
		"address1": "1242 Great Place Street",
		"address2": "",
		"city": "Houston",
		"state": "TX",
		"postalCode": "77001",
		"salesTax": 0.0825,
		"yearToDateBalance": 0.00,
		"latitude": 29.749907,
		"longitude": -95.358421,
		"documentType": "warehouse",
		"shippingTo": ["AR","LA","NM","OK","TX"]
	},
	{
		"warehouseId": "73c56048-2a67-4ae6-aaa7-12ff3f94eb8f",
		"name": "Jacksonville Warehouse",
		"address1": "42 Knowledge Drive",
		"address2": "",
		"city": "Jacksonville",
		"state": "FL",
		"postalCode": "32034",
		"salesTax": 0.095,
		"yearToDateBalance": 0.00,
		"latitude": 30.332184,
		"longitude": -81.655647,
		"documentType": "warehouse",
		"shippingTo": ["AL","FL","MS"]
	},
	{
		"warehouseId": "5a7ea984-bd9c-4eb5-a7b1-12c90f3d27c2",
		"name": "New York City Warehouse",
		"address1": "129 West 81st Street",
		"address2": "#5a",
		"city": "New York",
		"state": "NY",
		"postalCode": "10024",
		"salesTax": 0.08875,
		"yearToDateBalance": 0.00,
		"latitude": 40.7838289,
		"longitude": -73.9753697,
		"documentType": "warehouse",
		"shippingTo": ["CT","MA","ME","NH","NJ","NY","RI","VT"]
	},
	{
		"warehouseId": "711fc3c9-2124-406f-a2a1-e64230584a65",
		"name": "Chicago Warehouse",
		"address1": "381523 Chow Ave",
		"address2": "",
		"city": "Chicago",
		"state": "IL",
		"postalCode": "60007",
		"salesTax": 0.1025,
		"yearToDateBalance": 0.00,
		"latitude": 41.881832,
		"longitude": -87.623177,
		"documentType": "warehouse",
		"shippingTo": ["IA","IL","IN","MN","WI"]
	},
	{
		"warehouseId": "db5f8bdc-10e2-4655-9b11-17697f485033",
		"name": "Atlanta Warehouse",
		"address1": "711225 Galy Drive",
		"address2": "",
		"city": "Atlanta",
		"state": "GA",
		"postalCode": "30301",
		"salesTax": 0.085,
		"yearToDateBalance": 0.00,
		"latitude": 33.753746,
		"longitude": -84.386330,
		"documentType": "warehouse",
		"shippingTo": ["GA","NC","SC"]
	},
	{
		"warehouseId": "f650bba6-8ad4-40a9-a86e-e9c19b43ad96",
		"name": "Seattle Warehouse",
		"address1": "15235 Owen Ave",
		"address2": "",
		"city": "Seattle ",
		"state": "WA",
		"postalCode": "98101",
		"salesTax": 0.1025,
		"yearToDateBalance": 0.00,
		"latitude": 47.608013,
		"longitude": -122.335167,
		"documentType": "warehouse",
		"shippingTo": ["AK","ID","OR","WA"]
	},
	{
		"warehouseId": "d7890874-f4ce-4f35-9cd0-bb1b3d35721b",
		"name": "Denver Warehouse",
		"address1": "12345 N Downing Ave",
		"address2": "",
		"city": "Denver",
		"state": "CO",
		"postalCode": "80014",
		"salesTax": 0.0925,
		"yearToDateBalance": 0.00,
		"latitude": 39.742043,
		"longitude": -104.991531,
		"documentType": "warehouse",
		"shippingTo": ["CO","MT","UT","WY"]
	},
	{
		"warehouseId": "4d0d7c69-a380-4db1-941c-8f4348aa62e8",
		"name": "Philadelphia Warehouse",
		"address1": "455 Cain Street",
		"address2": "",
		"city": "Philadelphia",
		"state": "PA",
		"postalCode": "19019",
		"salesTax": 0.080,
		"yearToDateBalance": 0.00,
		"latitude": 39.952583,
		"longitude": -75.165222,
		"documentType": "warehouse",
		"shippingTo": ["DC","DE","MD","PA","VA","WV"]
	},
	{
		"warehouseId": "073ab6ef-27c7-4176-ae53-5cf27ac5fd0e",
		"name": "Detroit Warehouse",
		"address1": "85141825 Henry Street",
		"address2": "",
		"city": "Detroit",
		"state": "MI",
		"postalCode": "48127",
		"salesTax": 0.060,
		"yearToDateBalance": 0.00,
		"latitude": 42.331429,
		"longitude": -83.045753,
		"documentType": "warehouse",
		"shippingTo": ["MI","OH"]
	},
	{
		"warehouseId": "c7187f89-a11d-44f8-9f00-2385cd1a22d6",
		"name": "Kansas City Warehouse",
		"address1": "10325 W 75th St",
		"address2": "",
		"city": "Kansas City",
		"state": "MO",
		"postalCode": "64030",
		"salesTax": 0.0886,
		"yearToDateBalance": 0.00,
		"latitude": 39.099724,
		"longitude": -94.578331,
		"documentType": "warehouse",
		"shippingTo": ["KS","ND","NE","SD"]
	},
	{
		"warehouseId": "baedfbed-e5a5-4d2a-a3ad-f163ab2bb5f7",
		"name": "Nashville Warehouse",
		"address1": "47 Dr Broadway Drive",
		"address2": "",
		"city": "Nashville ",
		"state": "TN",
		"postalCode": "37011",
		"salesTax": 0.0925,
		"yearToDateBalance": 0.00,
		"latitude": 36.174465,
		"longitude": -86.767960,
		"documentType": "warehouse",
		"shippingTo": ["KY","MO","TN"]
	},
	{
		"warehouseId": "ee9a33c9-9c89-4638-9370-e3260049dc8b",
		"name": "Boston Warehouse",
		"address1": "47 Newbury Co Ave",
		"address2": "",
		"city": "Boston ",
		"state": "MA",
		"postalCode": "02108",
		"salesTax": 0.0625,
		"yearToDateBalance": 0.00,
		"latitude": 42.361145,
		"longitude": -71.057083,
		"documentType": "warehouse",
		"shippingTo": []
	},
	{
		"warehouseId": "f4c27781-ba5e-470f-adbe-fcb932ff2de7",
		"name": "Columbus Warehouse",
		"address1": "421449 Duddi Plaza",
		"address2": "",
		"city": "Columbus",
		"state": "OH",
		"postalCode": "43004",
		"salesTax": 0.090,
		"yearToDateBalance": 0.00,
		"latitude": 39.983334,
		"longitude": -82.983330,
		"documentType": "warehouse",
		"shippingTo": []
	},
	{
		"warehouseId": "ad811114-4c3a-460d-b6f9-4eb68a1bebb5",
		"name": "Los Angeles Warehouse",
		"address1": "123 Nowhere Street",
		"address2": "",
		"city": "Los Angeles",
		"state": "CA",
		"postalCode": "90001",
		"salesTax": 0.095,
		"yearToDateBalance": 0.00,
		"latitude": 34.052235,
		"longitude": -118.243683,
		"documentType": "warehouse",
		"shippingTo": []
	},
	{
		"warehouseId": "346f23a5-e6c3-4b7f-9bca-b2ec2c7f0ba9",
		"name": "Charlotte Warehouse",
		"address1": "711225 Galy Drive",
		"address2": "",
		"city": "Charlotte",
		"state": "NC",
		"postalCode": "30301",
		"salesTax": 0.0725,
		"yearToDateBalance": 0.00,
		"latitude": 35.227085,
		"longitude": -80.843124,
		"documentType": "warehouse",
		"shippingTo": []
	},
	{
		"warehouseId": "0f6caf8f-87b2-4376-b7cb-ff3cad386671",
		"name": "Newark Warehouse",
		"address1": "13125 Mayuram Drive",
		"address2": "",
		"city": "Newark",
		"state": "NJ",
		"postalCode": "07101",
		"salesTax": 0.080,
		"yearToDateBalance": 0.00,
		"latitude": 40.735657,
		"longitude": -74.172363,
		"documentType": "warehouse",
		"shippingTo": []
	},
	{
		"warehouseId": "b7b98ed8-2d44-4dd4-9f48-24a335f2d397",
		"name": "Virginia Beach Warehouse",
		"address1": "13341 McDonough Street",
		"address2": "",
		"city": "Virginia Beach",
		"state": "VA",
		"postalCode": "23450",
		"salesTax": 0.060,
		"yearToDateBalance": 0.00,
		"latitude": 36.863140,
		"longitude": -76.015778,
		"documentType": "warehouse",
		"shippingTo": []
	},

	{
		"warehouseId": "c49b6142-f726-4de8-b24c-a0de679adaba",
		"name": "Phoenix Warehouse",
		"address1": "42 Dr Van Buren Street",
		"address2": "",
		"city": "Phoenix ",
		"state": "AR",
		"postalCode": "85001",
		"salesTax": 0.086,
		"yearToDateBalance": 0.00,
		"latitude": 33.448376,
		"longitude": -112.074036,
		"documentType": "warehouse",
		"shippingTo": []
	},
	{
		"warehouseId": "19f944e1-55fc-4fcd-83d5-a9c0e21cba48",
		"name": "Indianapolis Warehouse",
		"address1": "127 N Illinois Ave",
		"address2": "",
		"city": "Indianapolis",
		"state": "IN",
		"postalCode": "46077",
		"salesTax": 0.070,
		"yearToDateBalance": 0.00,
		"latitude": 39.791000,
		"longitude": -86.148003,
		"documentType": "warehouse",
		"shippingTo": []
	},

	{
		"warehouseId": "a31b35ff-5b56-4377-85f1-1095c0f6b7fa",
		"name": "San Diego Warehouse",
		"address1": "456 Nowhere Street",
		"address2": "",
		"city": "San Diego",
		"state": "CA",
		"postalCode": "22400",
		"salesTax": 0.0775,
		"yearToDateBalance": 0.00,
		"latitude": 32.715736,
		"longitude": -117.161087,
		"documentType": "warehouse",
		"shippingTo": []
	},
	{
		"warehouseId": "b72dadb5-1467-4015-8377-d37d02ab3ff5",
		"name": "Austin Warehouse",
		"address1": "123456789 Sixth Street",
		"address2": "",
		"city": "Austin",
		"state": "TX",
		"postalCode": "73301",
		"salesTax": 0.0825,
		"yearToDateBalance": 0.00,
		"latitude": 30.26666,
		"longitude": -97.733330,
		"documentType": "warehouse",
		"shippingTo": []
	},
	{
		"warehouseId": "db696b48-b761-4d4c-a694-10f3d103b634",
		"name": "Pittsburgh Warehouse",
		"address1": "766 Anderson Street",
		"address2": "",
		"city": "Pittsburgh",
		"state": "PA",
		"postalCode": "15106",
		"salesTax": 0.070,
		"yearToDateBalance": 0.00,
		"latitude": 40.440624,
		"longitude": -79.995888,
		"documentType": "warehouse",
		"shippingTo": []
	},
	{
		"warehouseId": "af5ff80b-ddf6-4383-a3b8-f014cc762b19",
		"name": "Marquette Warehouse",
		"address1": "11185 Kreisa Ave",
		"address2": "",
		"city": "Marquette",
		"state": "MI",
		"postalCode": "49855",
		"salesTax": 0.060,
		"yearToDateBalance": 0.00,
		"latitude": 46.547581,
		"longitude": -87.395592,
		"documentType": "warehouse",
		"shippingTo": []
	},
	{
		"warehouseId": "c27a86ce-d304-4162-a72a-187bed306715",
		"name": "Baltimore Warehouse",
		"address1": "66251 Lombard Street",
		"address2": "",
		"city": "Baltimore",
		"state": "MD",
		"postalCode": "21201",
		"salesTax": 0.060,
		"yearToDateBalance": 0.00,
		"latitude": 39.299236,
		"longitude": -76.609383,
		"documentType": "warehouse"
	},
	{
		"warehouseId": "97c13a82-0c3d-4fe8-83ee-82a5d59b6109",
		"name": "Milwaukee Warehouse",
		"address1": "10001 E Bluemound Street",
		"address2": "",
		"city": "Milwaukee",
		"state": "WI",
		"postalCode": "53201",
		"salesTax": 0.055,
		"yearToDateBalance": 0.00,
		"latitude": 43.038902,
		"longitude": -87.906471,
		"documentType": "warehouse",
		"shippingTo": []
	},
	{
		"warehouseId": "a1d10cf3-bd04-4e1d-9cc2-4a0753bacfa2",
		"name": "Minneapolis Warehouse",
		"address1": "12345 N Downing Ave",
		"address2": "",
		"city": "Minneapolis",
		"state": "MN",
		"postalCode": "55111",
		"salesTax": 0.0803,
		"yearToDateBalance": 0.00,
		"latitude": 44.986656,
		"longitude": -93.258133,
		"documentType": "warehouse",
		"shippingTo": []
	},
	{
		"warehouseId": "8d22fc89-d173-4e60-8c6d-d929a15c9151",
		"name": "Charleston Warehouse",
		"address1": "2323 Elliot Street",
		"address2": "",
		"city": "Charleston",
		"state": "SC",
		"postalCode": "29401",
		"salesTax": 0.090,
		"yearToDateBalance": 0.00,
		"latitude": 32.784618,
		"longitude": -79.940918,
		"documentType": "warehouse"
	},
	{
		"warehouseId": "6f74356c-6e63-419d-bbea-088cb000cd3c",
		"name": "Huntsville Warehouse",
		"address1": "46 Marbury Street",
		"address2": "",
		"city": "Huntsville",
		"state": "AL",
		"postalCode": "35649",
		"salesTax": 0.090,
		"yearToDateBalance": 0.00,
		"latitude": 34.738228,
		"longitude": -86.601791,
		"documentType": "warehouse"
	},
	{
		"warehouseId": "a6273938-6cb5-4954-99a0-e7dc292de5da",
		"name": "New Orleans Warehouse",
		"address1": "32 Bourbon Drive",
		"address2": "",
		"city": "New Orleans",
		"state": "LA",
		"postalCode": "70032",
		"salesTax": 0.090,
		"yearToDateBalance": 0.00,
		"latitude": 29.951065,
		"longitude": -90.071533,
		"documentType": "warehouse",
		"shippingTo": []
	},
	{
		"warehouseId": "ec76473f-f578-4bcc-9d9c-cd2e7e74aac5",
		"name": "Louisville Warehouse",
		"address1": "321 Whiskey Row",
		"address2": "",
		"city": "Louisville",
		"state": "KY",
		"postalCode": "40018",
		"salesTax": 0.070,
		"yearToDateBalance": 0.00,
		"latitude": 38.328732,
		"longitude": -85.764771,
		"documentType": "warehouse",
		"shippingTo": []
	},
	{
		"warehouseId": "c9e85806-e277-4967-bdb7-4eace4a31fc0",
		"name": "Portland Warehouse",
		"address1": "665544 SE Belmont Street",
		"address2": "",
		"city": "Portland",
		"state": "OR",
		"postalCode": "97035",
		"salesTax": 0.070,
		"yearToDateBalance": 0.00,
		"latitude": 45.523064,
		"longitude": -122.676483,
		"documentType": "warehouse",
		"shippingTo": []
	},
	{
		"warehouseId": "91d60dcf-62e8-416d-aa71-cd7232a5a051",
		"name": "Oklahoma City Warehouse",
		"address1": "456 Bricktown Drive",
		"address2": "",
		"city": "Oklahoma City",
		"state": "OK",
		"postalCode": "73008",
		"salesTax": 0.070,
		"yearToDateBalance": 0.00,
		"latitude": 35.481918,
		"longitude":  -97.508469,
		"documentType": "warehouse",
		"shippingTo": []
	},
	{
		"warehouseId": "3f6ed69f-459e-400a-8210-653ccec5c20b",
		"name": "Bridgeport Warehouse",
		"address1": "1243 Black Rock Drive",
		"address2": "",
		"city": "Bridgeport",
		"state": "CT",
		"postalCode": "06601",
		"salesTax": 0.0635,
		"yearToDateBalance": 0.00,
		"latitude": 41.186390,
		"longitude":  -73.195557,
		"documentType": "warehouse",
		"shippingTo": []
	},
	{
		"warehouseId": "1cf8058b-997c-4251-b13b-47fb9badfbef",
		"name": "Salt Lake City Warehouse",
		"address1": "1012 S 200 NE",
		"address2": "",
		"city": "Salt Lake City",
		"state": "UT",
		"postalCode": "84044",
		"salesTax": 0.0775,
		"yearToDateBalance": 0.00,
		"latitude": 40.754700,
		"longitude":  -111.892622,
		"documentType": "warehouse"
	},
	{
		"warehouseId": "34cc1dc1-7fb6-4b15-8002-c35746eddd65",
		"name": "Des Moines Warehouse",
		"address1": "1846 Court Avenue",
		"address2": "",
		"city": "Des Moines",
		"state": "IA",
		"postalCode": "50047",
		"salesTax": 0.0775,
		"yearToDateBalance": 0.00,
		"latitude": 41.619549,
		"longitude":  -93.598022,
		"documentType": "warehouse",
		"shippingTo": []
	},
	{
		"warehouseId": "bbd5c361-029d-4036-91b9-7d78ed17e2e5",
		"name": "Las Vegas Warehouse",
		"address1": "1892 Fremont Street",
		"address2": "",
		"city": "Las Vegas",
		"state": "NV",
		"postalCode": "88901",
		"salesTax": 0.0838,
		"yearToDateBalance": 0.00,
		"latitude": 36.114647,
		"longitude": -115.172813,
		"documentType": "warehouse",
		"shippingTo": []
	},
	{
		"warehouseId": "c5ff96c0-ec71-467d-81f8-3adcc7e981da",
		"name": "Little Rock Warehouse",
		"address1": "9213 Arch Drive",
		"address2": "",
		"city": "Little Rock",
		"state": "AR",
		"postalCode": "72002",
		"salesTax": 0.01125,
		"yearToDateBalance": 0.00,
		"latitude": 34.746483,
		"longitude": -92.289597,
		"documentType": "warehouse",
		"shippingTo": []
	},
	{
		"warehouseId": "ddeae878-5472-42cd-95e1-443310ca2765",
		"name": "Jackson Warehouse",
		"address1": "902 Farish Ave",
		"address2": "",
		"city": "Jackson",
		"state": "MS",
		"postalCode": "72002",
		"salesTax": 0.060,
		"yearToDateBalance": 0.00,
		"latitude": 32.298756,
		"longitude": -90.184807,
		"documentType": "warehouse",
		"shippingTo": []
	},
	{
		"warehouseId": "1d305e3c-a791-4686-9b6e-d86e9064c352",
		"name": "Wichita Warehouse",
		"address1": "902 Farish Ave",
		"address2": "",
		"city": "Wichita",
		"state": "KS",
		"postalCode": "67052",
		"salesTax": 0.075,
		"yearToDateBalance": 0.00,
		"latitude": 37.697948,
		"longitude": -97.314835,
		"documentType": "warehouse",
		"shippingTo": []
	},
	{
		"warehouseId": "aba89c9a-99d9-458e-acb1-a2bbef823bd4",
		"name": "Albuquerque Warehouse",
		"address1": "209 Central St",
		"address2": "",
		"city": "Albuquerque",
		"state": "NM",
		"postalCode": "67052",
		"salesTax": 0.0788,
		"yearToDateBalance": 0.00,
		"latitude": 35.106766,
		"longitude": -106.629181,
		"documentType": "warehouse",
		"shippingTo": []
	},
	{
		"warehouseId": "c53fc742-2049-42fa-a22d-c7e0c885e48e",
		"name": "Omaha Warehouse",
		"address1": "209 Central St",
		"address2": "",
		"city": "Omaha",
		"state": "NE",
		"postalCode": "68007",
		"salesTax": 0.070,
		"yearToDateBalance": 0.00,
		"latitude": 41.257160,
		"longitude": 95.995102,
		"documentType": "warehouse",
		"shippingTo": []
	},
	{
		"warehouseId": "68c27f3e-948f-4b46-af26-9119a143ca6f",
		"name": "Charleston WV Warehouse",
		"address1": "702 Capitol Drive",
		"address2": "",
		"city": "Charleston",
		"state": "WV",
		"postalCode": "25301",
		"salesTax": 0.060,
		"yearToDateBalance": 0.00,
		"latitude": 38.349497,
		"longitude": -81.633294,
		"documentType": "warehouse",
		"shippingTo": []
	},
	{
		"warehouseId": "d83244a5-92d4-401b-916a-a0d91cbfe957",
		"name": "Boise Warehouse",
		"address1": "702 Capitol Drive",
		"address2": "",
		"city": "Boise",
		"state": "ID",
		"postalCode": "83799",
		"salesTax": 0.060,
		"yearToDateBalance": 0.00,
		"latitude": 43.618881,
		"longitude": -116.215019,
		"documentType": "warehouse",
		"shippingTo": []
	},
	{
		"warehouseId": "98b800ee-fb36-4c14-80aa-b523e8d6af06",
		"name": "Honolulu Warehouse",
		"address1": "207 Kalakaua Street",
		"address2": "",
		"city": "Honolulu",
		"state": "HI",
		"postalCode": "96795",
		"salesTax": 0.045,
		"yearToDateBalance": 0.00,
		"latitude": 21.315603,
		"longitude": -157.858093,
		"documentType": "warehouse",
		"shippingTo": []
	},
	{
		"warehouseId": "f219f87f-06a2-4abc-b260-d7b8e648e428",
		"name": "Manchester Warehouse",
		"address1": "403 Shambles Square Ave",
		"address2": "",
		"city": "Manchester",
		"state": "NH",
		"postalCode": "03101",
		"salesTax": 0.0663,
		"yearToDateBalance": 0.00,
		"latitude": 43.008663,
		"longitude": -71.454391,
		"documentType": "warehouse"
	},
	{
		"warehouseId": "0442e00d-a39d-42a8-b75f-af9ada38cee6",
		"name": "Augusta Warehouse",
		"address1": "403 Shambles Square Ave",
		"address2": "",
		"city": "Augusta",
		"state": "MA",
		"postalCode": "04330",
		"salesTax": 0.0550,
		"yearToDateBalance": 0.00,
		"latitude": 44.310624,
		"longitude": -69.779490,
		"documentType": "warehouse",
		"shippingTo": []
	},
	{
		"warehouseId": "d03c8adb-c4b0-4066-b590-3873b1c935b1",
		"name": "Billings Warehouse",
		"address1": "1986 Ellery Avenue",
		"address2": "",
		"city": "Billings",
		"state": "MT",
		"postalCode": "59101",
		"salesTax": 0.0698,
		"yearToDateBalance": 0.00,
		"latitude": 45.787636,
		"longitude": -108.489304,
		"documentType": "warehouse",
		"shippingTo": []
	},
	{
		"warehouseId": "632d93a4-6bb9-4882-8ff7-bca907e2c35a",
		"name": "Providence Warehouse",
		"address1": "1900 S Atwells Avenue",
		"address2": "",
		"city": "Providence",
		"state": "RI",
		"postalCode": "02860",
		"salesTax": 0.0700,
		"yearToDateBalance": 0.00,
		"latitude": 41.825226,
		"longitude": -71.418884,
		"documentType": "warehouse",
		"shippingTo": []
	},
	{
		"warehouseId": "24ce5a31-e19f-4260-854c-e5e1b658d286",
		"name": "Wilmington Warehouse",
		"address1": "1701 S Market St",
		"address2": "",
		"city": "Wilmington",
		"state": "DE",
		"postalCode": "19801",
		"salesTax": 0.0700,
		"yearToDateBalance": 0.00,
		"latitude": 39.739071,
		"longitude": -75.539787,
		"documentType": "warehouse",
		"shippingTo": []
	},
	{
		"warehouseId": "c9f4815b-02e1-48c7-b8e5-bf15960c0013",
		"name": "Anchorage Warehouse",
		"address1": "9000 W 5th Avenue",
		"address2": "",
		"city": "Anchorage",
		"state": "AK",
		"postalCode": "99501",
		"salesTax": 0.075,
		"yearToDateBalance": 0.00,
		"latitude": 61.217381,
		"longitude": -149.863129,
		"documentType": "warehouse",
		"shippingTo": []
	},
	{
		"warehouseId": "852db688-f1fc-49c0-92c7-f3a22e1ee527",
		"name": "Burlington Warehouse",
		"address1": "124356 Church Street Marketplace",
		"address2": "",
		"city": "Burlington",
		"state": "VT",
		"postalCode": "05401",
		"salesTax": 0.060,
		"yearToDateBalance": 0.00,
		"latitude": 44.475883,
		"longitude": -73.212074,
		"documentType": "warehouse",
		"shippingTo": []
	},
	{
		"warehouseId": "c7106ac4-fd55-4f60-99c0-4079d60573e6",
		"name": "Cheyenne Warehouse",
		"address1": "12456 Capitol Avenue",
		"address2": "",
		"city": "Cheyenne",
		"state": "WY",
		"postalCode": "82001",
		"salesTax": 0.060,
		"yearToDateBalance": 0.00,
		"latitude": 41.161079,
		"longitude": -104.805450,
		"documentType": "warehouse",
		"shippingTo": []
	},
	{
		"warehouseId": "1735ff2b-b4d7-49fc-b939-a4d731c1649a",
		"name": "Sioux Falls Warehouse",
		"address1": "987 Falls Park",
		"address2": "",
		"city": "Sioux Falls",
		"state": "SD",
		"postalCode": "57101",
		"salesTax": 0.065,
		"yearToDateBalance": 0.00,
		"latitude": 43.536285,
		"longitude": -96.731780,
		"documentType": "warehouse",
		"shippingTo": []
	},
	{
		"warehouseId": "6343fd74-7d9a-4d69-80b1-21a446e69beb",
		"name": "Fargo Warehouse",
		"address1": "567 Broadway Ave",
		"address2": "",
		"city": "Fargo",
		"state": "ND",
		"postalCode": "58102",
		"salesTax": 0.075,
		"yearToDateBalance": 0.00,
		"latitude": 46.877186,
		"longitude": -96.789803,
		"documentType": "warehouse",
		"shippingTo": []
	}
]